{
  "lines": [
    {
      "name": "Red Line",
      "code": "red",
      "color": "#D32F2F",
      "stations": [
        {"id": "R1", "name": "Shaheed Sthal", "nameHindi": "शहीद स्थल", "latitude": 28.6702, "longitude": 77.4160, "sequence": 1, "interchange": false},
        {"id": "R2", "name": "Hindon River", "nameHindi": "हिंडन रिवर", "latitude": 28.6735, "longitude": 77.4065, "sequence": 2, "interchange": false},
        {"id": "R3", "name": "Arthala", "nameHindi": "अर्थला", "latitude": 28.6772, "longitude": 77.3919, "sequence": 3, "interchange": false},
        {"id": "R4", "name": "Mohan Nagar", "nameHindi": "मोहन नगर", "latitude": 28.6786, "longitude": 77.3842, "sequence": 4, "interchange": false},
        {"id": "R5", "name": "Shyam Park", "nameHindi": "श्याम पार्क", "latitude": 28.6782, "longitude": 77.3709, "sequence": 5, "interchange": false},
        {"id": "R6", "name": "Major Mohit Sharma Rajendra Nagar", "nameHindi": "मेजर मोहित शर्मा राजेंद्र नगर", "latitude": 28.6781, "longitude": 77.3595, "sequence": 6, "interchange": false},
        {"id": "R7", "name": "Raj Bagh", "nameHindi": "राज बाग", "latitude": 28.6771, "longitude": 77.3465, "sequence": 7, "interchange": false},
        {"id": "R8", "name": "Shaheed Nagar", "nameHindi": "शहीद नगर", "latitude": 28.6766, "longitude": 77.3338, "sequence": 8, "interchange": false},
        {"id": "R9", "name": "Dilshad Garden", "nameHindi": "दिलशाद गार्डन", "latitude": 28.6760, "longitude": 77.3215, "sequence": 9, "interchange": false},
        {"id": "R10", "name": "Jhilmil", "nameHindi": "झिलमिल", "latitude": 28.6756, "longitude": 77.3124, "sequence": 10, "interchange": false},
        {"id": "R11", "name": "Mansarovar Park", "nameHindi": "मानसरोवर पार्क", "latitude": 28.6754, "longitude": 77.3012, "sequence": 11, "interchange": false},
        {"id": "R12", "name": "Shahdara", "nameHindi": "शाहदरा", "latitude": 28.6735, "longitude": 77.2873, "sequence": 12, "interchange": false},
        {"id": "R13", "name": "Welcome", "nameHindi": "वेलकम", "latitude": 28.6720, "longitude": 77.2779, "sequence": 13, "interchange": true, "interchangeLines": ["Pink Line"]},
        {"id": "R14", "name": "Seelampur", "nameHindi": "सीलमपुर", "latitude": 28.6703, "longitude": 77.2673, "sequence": 14, "interchange": false},
        {"id": "R15", "name": "Shastri Park", "nameHindi": "शास्त्री पार्क", "latitude": 28.6685, "longitude": 77.2504, "sequence": 15, "interchange": false},
        {"id": "R16", "name": "Kashmere Gate", "nameHindi": "कश्मीरी गेट", "latitude": 28.6679, "longitude": 77.2280, "sequence": 16, "interchange": true, "interchangeLines": ["Yellow Line", "Violet Line"]},
        {"id": "R17", "name": "Tis Hazari", "nameHindi": "तीस हज़ारी", "latitude": 28.6671, "longitude": 77.2167, "sequence": 17, "interchange": false},
        {"id": "R18", "name": "Pul Bangash", "nameHindi": "पुल बंगश", "latitude": 28.6657, "longitude": 77.2063, "sequence": 18, "interchange": true, "interchangeLines": ["Magenta Line"]},
        {"id": "R19", "name": "Pratap Nagar", "nameHindi": "प्रताप नगर", "latitude": 28.6666, "longitude": 77.1969, "sequence": 19, "interchange": false},
        {"id": "R20", "name": "Shastri Nagar", "nameHindi": "शास्त्री नगर", "latitude": 28.6701, "longitude": 77.1817, "sequence": 20, "interchange": false},
        {"id": "R21", "name": "Inderlok", "nameHindi": "इन्द्रलोक", "latitude": 28.6735, "longitude": 77.1702, "sequence": 21, "interchange": true, "interchangeLines": ["Green Line"]},
        {"id": "R22", "name": "Kanhaiya Nagar", "nameHindi": "कन्हैया नगर", "latitude": 28.6824, "longitude": 77.1626, "sequence": 22, "interchange": false},
        {"id": "R23", "name": "Keshav Puram", "nameHindi": "केशव पुरम", "latitude": 28.6889, "longitude": 77.1618, "sequence": 23, "interchange": false},
        {"id": "R24", "name": "Netaji Subhash Place", "nameHindi": "नेताजी सुभाष प्लेस", "latitude": 28.6956, "longitude": 77.1524, "sequence": 24, "interchange": true, "interchangeLines": ["Pink Line"]},
        {"id": "R25", "name": "Kohat Enclave", "nameHindi": "कोहाट एन्क्लेव", "latitude": 28.6979, "longitude": 77.1405, "sequence": 25, "interchange": false},
        {"id": "R26", "name": "Pitampura", "nameHindi": "पीतमपुरा", "latitude": 28.7032, "longitude": 77.1324, "sequence": 26, "interchange": false},
        {"id": "R27", "name": "Rohini East", "nameHindi": "रोहिणी पूर्व", "latitude": 28.7079, "longitude": 77.1257, "sequence": 27, "interchange": false},
        {"id": "R28", "name": "Rohini West", "nameHindi": "रोहिणी पश्चिम", "latitude": 28.7150, "longitude": 77.1157, "sequence": 28, "interchange": false},
        {"id": "R29", "name": "Rithala", "nameHindi": "रिठाला", "latitude": 28.7208, "longitude": 77.1050, "sequence": 29, "interchange": false}
      ]
    },
    {
      "name": "Yellow Line",
      "code": "yellow",
      "color": "#FBC02D",
      "stations": [
        {"id": "Y1", "name": "Samaypur Badli", "nameHindi": "समयपुर बादली", "latitude": 28.7429, "longitude": 77.1465, "sequence": 1, "interchange": false},
        {"id": "Y2", "name": "Rohini Sector 18-19", "nameHindi": "रोहिणी सेक्टर 18-19", "latitude": 28.7402, "longitude": 77.1356, "sequence": 2, "interchange": false},
        {"id": "Y3", "name": "Haiderpur Badli Mor", "nameHindi": "हैदरपुर बादली मोड़", "latitude": 28.7187, "longitude": 77.1500, "sequence": 3, "interchange": true, "interchangeLines": ["Magenta Line"]},
        {"id": "Y4", "name": "Jahangirpuri", "nameHindi": "जहांगीरपुरी", "latitude": 28.7282, "longitude": 77.1612, "sequence": 4, "interchange": false},
        {"id": "Y5", "name": "Adarsh Nagar", "nameHindi": "आदर्श नगर", "latitude": 28.6964, "longitude": 77.2088, "sequence": 5, "interchange": false},
        {"id": "Y6", "name": "Azadpur", "nameHindi": "आज़ादपुर", "latitude": 28.7073, "longitude": 77.1799, "sequence": 6, "interchange": true, "interchangeLines": ["Pink Line", "Magenta Line"]},
        {"id": "Y7", "name": "Model Town", "nameHindi": "मॉडल टाउन", "latitude": 28.7028, "longitude": 77.1938, "sequence": 7, "interchange": false},
        {"id": "Y8", "name": "Guru Tegh Bahadur Nagar", "nameHindi": "गुरु तेग बहादुर नगर", "latitude": 28.6982, "longitude": 77.2070, "sequence": 8, "interchange": false},
        {"id": "Y9", "name": "Vishwavidyalaya", "nameHindi": "विश्वविद्यालय", "latitude": 28.6948, "longitude": 77.2124, "sequence": 9, "interchange": false},
        {"id": "Y10", "name": "Vidhan Sabha", "nameHindi": "विधान सभा", "latitude": 28.6878, "longitude": 77.2216, "sequence": 10, "interchange": false},
        {"id": "Y11", "name": "Civil Lines", "nameHindi": "सिविल लाइन्स", "latitude": 28.6769, "longitude": 77.2250, "sequence": 11, "interchange": false},
        {"id": "Y12", "name": "Kashmere Gate", "nameHindi": "कश्मीरी गेट", "latitude": 28.6679, "longitude": 77.2280, "sequence": 12, "interchange": true, "interchangeLines": ["Red Line", "Violet Line"]},
        {"id": "Y13", "name": "Chandni Chowk", "nameHindi": "चाँदनी चौक", "latitude": 28.6564, "longitude": 77.2292, "sequence": 13, "interchange": false},
        {"id": "Y14", "name": "Chawri Bazar", "nameHindi": "चावड़ी बाज़ार", "latitude": 28.6496, "longitude": 77.2263, "sequence": 14, "interchange": false},
        {"id": "Y15", "name": "New Delhi", "nameHindi": "नई दिल्ली", "latitude": 28.6429, "longitude": 77.2224, "sequence": 15, "interchange": true, "interchangeLines": ["Airport Express"]},
        {"id": "Y16", "name": "Rajiv Chowk", "nameHindi": "राजीव चौक", "latitude": 28.6329, "longitude": 77.2196, "sequence": 16, "interchange": true, "interchangeLines": ["Blue Line"]},
        {"id": "Y17", "name": "Patel Chowk", "nameHindi": "पटेल चौक", "latitude": 28.6230, "longitude": 77.2123, "sequence": 17, "interchange": false},
        {"id": "Y18", "name": "Central Secretariat", "nameHindi": "केन्द्रीय सचिवालय", "latitude": 28.6150, "longitude": 77.2120, "sequence": 18, "interchange": true, "interchangeLines": ["Violet Line"]},
        {"id": "Y19", "name": "Udyog Bhawan", "nameHindi": "उद्योग भवन", "latitude": 28.6115, "longitude": 77.2101, "sequence": 19, "interchange": false},
        {"id": "Y20", "name": "Lok Kalyan Marg", "nameHindi": "लोक कल्याण मार्ग", "latitude": 28.5975, "longitude": 77.2091, "sequence": 20, "interchange": false},
        {"id": "Y21", "name": "Jorbagh", "nameHindi": "जोरबाग", "latitude": 28.5872, "longitude": 77.2127, "sequence": 21, "interchange": false},
        {"id": "Y22", "name": "Dilli Haat - INA", "nameHindi": "दिल्ली हाट - आईएनए", "latitude": 28.5752, "longitude": 77.2095, "sequence": 22, "interchange": true, "interchangeLines": ["Pink Line"]},
        {"id": "Y23", "name": "AIIMS", "nameHindi": "एम्स", "latitude": 28.5682, "longitude": 77.2079, "sequence": 23, "interchange": false},
        {"id": "Y24", "name": "Green Park", "nameHindi": "ग्रीन पार्क", "latitude": 28.5599, "longitude": 77.2069, "sequence": 24, "interchange": false},
        {"id": "Y25", "name": "Hauz Khas", "nameHindi": "हौज़ खास", "latitude": 28.5433, "longitude": 77.2067, "sequence": 25, "interchange": true, "interchangeLines": ["Magenta Line"]},
        {"id": "Y26", "name": "Malviya Nagar", "nameHindi": "मालवीय नगर", "latitude": 28.5282, "longitude": 77.2056, "sequence": 26, "interchange": false},
        {"id": "Y27", "name": "Saket", "nameHindi": "साकेत", "latitude": 28.5206, "longitude": 77.1994, "sequence": 27, "interchange": false},
        {"id": "Y28", "name": "Qutab Minar", "nameHindi": "कुतुब मीनार", "latitude": 28.5127, "longitude": 77.1858, "sequence": 28, "interchange": false},
        {"id": "Y29", "name": "Chhattarpur", "nameHindi": "छतरपुर", "latitude": 28.5066, "longitude": 77.1749, "sequence": 29, "interchange": true, "interchangeLines": ["Golden Line"]},
        {"id": "Y30", "name": "Sultanpur", "nameHindi": "सुल्तानपुर", "latitude": 28.4992, "longitude": 77.1614, "sequence": 30, "interchange": false},
        {"id": "Y31", "name": "Ghitorni", "nameHindi": "घिटोरनी", "latitude": 28.4938, "longitude": 77.1491, "sequence": 31, "interchange": false},
        {"id": "Y32", "name": "Arjan Garh", "nameHindi": "अर्जन गढ़", "latitude": 28.4808, "longitude": 77.1259, "sequence": 32, "interchange": false},
        {"id": "Y33", "name": "Guru Dronacharya", "nameHindi": "गुरु द्रोणाचार्य", "latitude": 28.4821, "longitude": 77.1022, "sequence": 33, "interchange": false},
        {"id": "Y34", "name": "Sikanderpur", "nameHindi": "सिकंदरपुर", "latitude": 28.4814, "longitude": 77.0930, "sequence": 34, "interchange": true, "interchangeLines": ["Rapid Metro"]},
        {"id": "Y35", "name": "MG Road", "nameHindi": "एमजी रोड", "latitude": 28.4797, "longitude": 77.0804, "sequence": 35, "interchange": false},
        {"id": "Y36", "name": "IFFCO Chowk", "nameHindi": "इफ्को चौक", "latitude": 28.4721, "longitude": 77.0725, "sequence": 36, "interchange": false},
        {"id": "Y37", "name": "Millennium City Centre Gurugram", "nameHindi": "मिलेनियम सिटी सेंटर गुरुग्राम", "latitude": 28.4591, "longitude": 77.0726, "sequence": 37, "interchange": false}
      ]
    },
    {
      "name": "Blue Line (Main)",
      "code": "blue",
      "color": "#1976D2",
      "stations": [
        {"id": "BM1", "name": "Noida Electronic City", "nameHindi": "नोएडा इलेक्ट्रॉनिक सिटी", "latitude": 28.6287, "longitude": 77.3752, "sequence": 1, "interchange": false},
        {"id": "BM2", "name": "Noida Sector 62", "nameHindi": "नोएडा सेक्टर 62", "latitude": 28.6170, "longitude": 77.3736, "sequence": 2, "interchange": false},
        {"id": "BM3", "name": "Noida Sector 59", "nameHindi": "नोएडा सेक्टर 59", "latitude": 28.6091, "longitude": 77.3730, "sequence": 3, "interchange": false},
        {"id": "BM4", "name": "Noida Sector 61", "nameHindi": "नोएडा सेक्टर 61", "latitude": 28.5977, "longitude": 77.3724, "sequence": 4, "interchange": false},
        {"id": "BM5", "name": "Noida Sector 52", "nameHindi": "नोएडा सेक्टर 52", "latitude": 28.5868, "longitude": 77.3727, "sequence": 5, "interchange": true, "interchangeLines": ["Aqua Line"]},
        {"id": "BM6", "name": "Noida Sector 34", "nameHindi": "नोएडा सेक्टर 34", "latitude": 28.5802, "longitude": 77.3635, "sequence": 6, "interchange": false},
        {"id": "BM7", "name": "Noida City Centre", "nameHindi": "नोएडा सिटी सेंटर", "latitude": 28.5746, "longitude": 77.3561, "sequence": 7, "interchange": false},
        {"id": "BM8", "name": "Golf Course", "nameHindi": "गोल्फ कोर्स", "latitude": 28.5669, "longitude": 77.3457, "sequence": 8, "interchange": false},
        {"id": "BM9", "name": "Botanical Garden", "nameHindi": "बोटैनिकल गार्डन", "latitude": 28.5642, "longitude": 77.3347, "sequence": 9, "interchange": true, "interchangeLines": ["Magenta Line"]},
        {"id": "BM10", "name": "Noida Sector 18", "nameHindi": "नोएडा सेक्टर 18", "latitude": 28.5708, "longitude": 77.3261, "sequence": 10, "interchange": false},
        {"id": "BM11", "name": "Noida Sector 16", "nameHindi": "नोएडा सेक्टर 16", "latitude": 28.5779, "longitude": 77.3181, "sequence": 11, "interchange": false},
        {"id": "BM12", "name": "Noida Sector 15", "nameHindi": "नोएडा सेक्टर 15", "latitude": 28.5850, "longitude": 77.3116, "sequence": 12, "interchange": false},
        {"id": "BM13", "name": "New Ashok Nagar", "nameHindi": "न्यू अशोक नगर", "latitude": 28.5885, "longitude": 77.3015, "sequence": 13, "interchange": false},
        {"id": "BM14", "name": "Mayur Vihar Extension", "nameHindi": "मयूर विहार एक्सटेंशन", "latitude": 28.5941, "longitude": 77.2945, "sequence": 14, "interchange": false},
        {"id": "BM15", "name": "Mayur Vihar-I", "nameHindi": "मयूर विहार-I", "latitude": 28.6044, "longitude": 77.2894, "sequence": 15, "interchange": true, "interchangeLines": ["Pink Line"]},
        {"id": "BM16", "name": "Akshardham", "nameHindi": "अक्षरधाम", "latitude": 28.6184, "longitude": 77.2798, "sequence": 16, "interchange": false},
        {"id": "BM17", "name": "Yamuna Bank", "nameHindi": "यमुना बैंक", "latitude": 28.6232, "longitude": 77.2679, "sequence": 17, "interchange": true, "interchangeLines": ["Blue Line (Branch)"]},
        {"id": "BM18", "name": "Indraprastha", "nameHindi": "इंद्रप्रस्थ", "latitude": 28.6203, "longitude": 77.2501, "sequence": 18, "interchange": false},
        {"id": "BM19", "name": "Supreme Court", "nameHindi": "सुप्रीम कोर्ट", "latitude": 28.6234, "longitude": 77.2425, "sequence": 19, "interchange": false},
        {"id": "BM20", "name": "Mandi House", "nameHindi": "मंडी हाउस", "latitude": 28.6258, "longitude": 77.2347, "sequence": 20, "interchange": true, "interchangeLines": ["Violet Line"]},
        {"id": "BM21", "name": "Barakhamba Road", "nameHindi": "बाराखंबा रोड", "latitude": 28.6297, "longitude": 77.2249, "sequence": 21, "interchange": false},
        {"id": "BM22", "name": "Rajiv Chowk", "nameHindi": "राजीव चौक", "latitude": 28.6329, "longitude": 77.2196, "sequence": 22, "interchange": true, "interchangeLines": ["Yellow Line"]},
        {"id": "BM23", "name": "Ramakrishna Ashram Marg", "nameHindi": "रामकृष्ण आश्रम मार्ग", "latitude": 28.6392, "longitude": 77.2063, "sequence": 23, "interchange": true, "interchangeLines": ["Magenta Line"]},
        {"id": "BM24", "name": "Jhandewalan", "nameHindi": "झंडेवालान", "latitude": 28.6443, "longitude": 77.1998, "sequence": 24, "interchange": false},
        {"id": "BM25", "name": "Karol Bagh", "nameHindi": "करोल बाग", "latitude": 28.6439, "longitude": 77.1884, "sequence": 25, "interchange": false},
        {"id": "BM26", "name": "Rajendra Place", "nameHindi": "राजेंद्र प्लेस", "latitude": 28.6424, "longitude": 77.1918, "sequence": 26, "interchange": false},
        {"id": "BM27", "name": "Patel Nagar", "nameHindi": "पटेल नगर", "latitude": 28.6450, "longitude": 77.1670, "sequence": 27, "interchange": false},
        {"id": "BM28", "name": "Shadipur", "nameHindi": "शादीपुर", "latitude": 28.6514, "longitude": 77.1560, "sequence": 28, "interchange": false},
        {"id": "BM29", "name": "Kirti Nagar", "nameHindi": "कीर्ति नगर", "latitude": 28.6558, "longitude": 77.1485, "sequence": 29, "interchange": true, "interchangeLines": ["Green Line"]},
        {"id": "BM30", "name": "Moti Nagar", "nameHindi": "मोती नगर", "latitude": 28.6578, "longitude": 77.1405, "sequence": 30, "interchange": false},
        {"id": "BM31", "name": "Ramesh Nagar", "nameHindi": "रमेश नगर", "latitude": 28.6528, "longitude": 77.1315, "sequence": 31, "interchange": false},
        {"id": "BM32", "name": "Rajouri Garden", "nameHindi": "राजौरी गार्डन", "latitude": 28.6492, "longitude": 77.1227, "sequence": 32, "interchange": true, "interchangeLines": ["Pink Line"]},
        {"id": "BM33", "name": "Tagore Garden", "nameHindi": "टैगोर गार्डन", "latitude": 28.6438, "longitude": 77.1127, "sequence": 33, "interchange": false},
        {"id": "BM34", "name": "Subhash Nagar", "nameHindi": "सुभाष नगर", "latitude": 28.6404, "longitude": 77.1027, "sequence": 34, "interchange": false},
        {"id": "BM35", "name": "Tilak Nagar", "nameHindi": "तिलक नगर", "latitude": 28.6366, "longitude": 77.0963, "sequence": 35, "interchange": false},
        {"id": "BM36", "name": "Janakpuri East", "nameHindi": "जनकपुरी पूर्व", "latitude": 28.6331, "longitude": 77.0866, "sequence": 36, "interchange": false},
        {"id": "BM37", "name": "Janakpuri West", "nameHindi": "जनकपुरी पश्चिम", "latitude": 28.6296, "longitude": 77.0779, "sequence": 37, "interchange": true, "interchangeLines": ["Magenta Line"]},
        {"id": "BM38", "name": "Uttam Nagar East", "nameHindi": "उत्तम नगर पूर्व", "latitude": 28.6246, "longitude": 77.0631, "sequence": 38, "interchange": false},
        {"id": "BM39", "name": "Uttam Nagar West", "nameHindi": "उत्तम नगर पश्चिम", "latitude": 28.6217, "longitude": 77.0557, "sequence": 39, "interchange": false},
        {"id": "BM40", "name": "Nawada", "nameHindi": "नवादा", "latitude": 28.6202, "longitude": 77.0450, "sequence": 40, "interchange": false},
        {"id": "BM41", "name": "Dwarka Mor", "nameHindi": "द्वारका मोड़", "latitude": 28.6194, "longitude": 77.0332, "sequence": 41, "interchange": false},
        {"id": "BM42", "name": "Dwarka", "nameHindi": "द्वारका", "latitude": 28.6149, "longitude": 77.0226, "sequence": 42, "interchange": true, "interchangeLines": ["Grey Line"]},
        {"id": "BM43", "name": "Dwarka Sector 14", "nameHindi": "द्वारका सेक्टर 14", "latitude": 28.6022, "longitude": 77.0259, "sequence": 43, "interchange": false},
        {"id": "BM44", "name": "Dwarka Sector 13", "nameHindi": "द्वारका सेक्टर 13", "latitude": 28.5971, "longitude": 77.0330, "sequence": 44, "interchange": false},
        {"id": "BM45", "name": "Dwarka Sector 12", "nameHindi": "द्वारका सेक्टर 12", "latitude": 28.5922, "longitude": 77.0406, "sequence": 45, "interchange": false},
        {"id": "BM46", "name": "Dwarka Sector 11", "nameHindi": "द्वारका सेक्टर 11", "latitude": 28.5864, "longitude": 77.0493, "sequence": 46, "interchange": false},
        {"id": "BM47", "name": "Dwarka Sector 10", "nameHindi": "द्वारका सेक्टर 10", "latitude": 28.5811, "longitude": 77.0572, "sequence": 47, "interchange": false},
        {"id": "BM48", "name": "Dwarka Sector 9", "nameHindi": "द्वारका सेक्टर 9", "latitude": 28.5743, "longitude": 77.0651, "sequence": 48, "interchange": false},
        {"id": "BM49", "name": "Dwarka Sector 8", "nameHindi": "द्वारका सेक्टर 8", "latitude": 28.5657, "longitude": 77.0649, "sequence": 49, "interchange": false},
        {"id": "BM50", "name": "Dwarka Sector 21", "nameHindi": "द्वारका सेक्टर 21", "latitude": 28.5523, "longitude": 77.0562, "sequence": 50, "interchange": true, "interchangeLines": ["Airport Express"]}
      ]
    },
    {
      "name": "Magenta Line",
      "code": "magenta",
      "color": "#8E24AA",
      "stations": [
        {"id": "M1", "name": "Ramakrishna Ashram Marg", "nameHindi": "रामकृष्ण आश्रम मार्ग", "latitude": 28.6392, "longitude": 77.2063, "sequence": 1, "interchange": true, "interchangeLines": ["Blue Line"]},
        {"id": "M2", "name": "Nabi Karim", "nameHindi": "नबी करीम", "latitude": 28.6500, "longitude": 77.2100, "sequence": 2, "interchange": true, "interchangeLines": ["Green Line"]},
        {"id": "M3", "name": "Sadar Bazar", "nameHindi": "सदर बाज़ार", "latitude": 28.6600, "longitude": 77.2100, "sequence": 3, "interchange": false},
        {"id": "M4", "name": "Pul Bangash", "nameHindi": "पुल बंगश", "latitude": 28.6657, "longitude": 77.2063, "sequence": 4, "interchange": true, "interchangeLines": ["Red Line"]},
        {"id": "M5", "name": "Ghanta Ghar", "nameHindi": "घंटा घर", "latitude": 28.6750, "longitude": 77.2050, "sequence": 5, "interchange": false},
        {"id": "M6", "name": "Derawal Nagar", "nameHindi": "डेरावाल नगर", "latitude": 28.6900, "longitude": 77.1950, "sequence": 6, "interchange": false},
        {"id": "M7", "name": "Ashok Vihar", "nameHindi": "अशोक विहार", "latitude": 28.6980, "longitude": 77.1850, "sequence": 7, "interchange": false},
        {"id": "M8", "name": "Azadpur", "nameHindi": "आज़ादपुर", "latitude": 28.7073, "longitude": 77.1799, "sequence": 8, "interchange": true, "interchangeLines": ["Yellow Line", "Pink Line"]},
        {"id": "M9", "name": "Majlis Park", "nameHindi": "मजलिस पार्क", "latitude": 28.7242, "longitude": 77.1821, "sequence": 9, "interchange": true, "interchangeLines": ["Pink Line"]},
        {"id": "M10", "name": "Haiderpur Badli Mor", "nameHindi": "हैदरपुर बादली मोड़", "latitude": 28.7187, "longitude": 77.1500, "sequence": 10, "interchange": true, "interchangeLines": ["Yellow Line"]},
        {"id": "M11", "name": "Peeragarhi", "nameHindi": "पीरागढ़ी", "latitude": 28.6797, "longitude": 77.0925, "sequence": 11, "interchange": true, "interchangeLines": ["Green Line"]},
        {"id": "M12", "name": "Krishna Park Extension", "nameHindi": "कृष्णा पार्क एक्सटेंशन", "latitude": 28.6350, "longitude": 77.0800, "sequence": 12, "interchange": false},
        {"id": "M13", "name": "Janakpuri West", "nameHindi": "जनकपुरी पश्चिम", "latitude": 28.6296, "longitude": 77.0779, "sequence": 13, "interchange": true, "interchangeLines": ["Blue Line"]},
        {"id": "M14", "name": "Terminal 1-IGI Airport", "nameHindi": "टर्मिनल 1 - आईजीआई एयरपोर्ट", "latitude": 28.5653, "longitude": 77.1224, "sequence": 14, "interchange": true, "interchangeLines": ["Golden Line"]},
        {"id": "M15", "name": "Hauz Khas", "nameHindi": "हौज़ ख़ास", "latitude": 28.5433, "longitude": 77.2067, "sequence": 15, "interchange": true, "interchangeLines": ["Yellow Line"]},
        {"id": "M16", "name": "Kalkaji Mandir", "nameHindi": "कालकाजी मंदिर", "latitude": 28.5495, "longitude": 77.2588, "sequence": 16, "interchange": true, "interchangeLines": ["Violet Line"]},
        {"id": "M17", "name": "Botanical Garden", "nameHindi": "बोटैनिकल गार्डन", "latitude": 28.5642, "longitude": 77.3347, "sequence": 17, "interchange": true, "interchangeLines": ["Blue Line"]}
      ]
    },
    {
      "name": "Pink Line",
      "code": "pink",
      "color": "#F06292",
      "stations": [
        {"id": "P1", "name": "Majlis Park", "nameHindi": "मजलिस पार्क", "latitude": 28.7242, "longitude": 77.1821, "sequence": 1, "interchange": true, "interchangeLines": ["Magenta Line"]},
        {"id": "P2", "name": "Burari", "nameHindi": "बुराड़ी", "latitude": 28.7400, "longitude": 77.2000, "sequence": 2, "interchange": false},
        {"id": "P3", "name": "Jagatpur Village", "nameHindi": "जगतपुर गांव", "latitude": 28.7450, "longitude": 77.2200, "sequence": 3, "interchange": false},
        {"id": "P4", "name": "Sonia Vihar", "nameHindi": "सोनिया विहार", "latitude": 28.7300, "longitude": 77.2500, "sequence": 4, "interchange": false},
        {"id": "P5", "name": "Maujpur-Babarpur", "nameHindi": "मौजपुर-बाबरपुर", "latitude": 28.6921, "longitude": 77.2809, "sequence": 5, "interchange": true, "interchangeLines": ["Pink Line Loop"]},
        {"id": "P6", "name": "Welcome", "nameHindi": "वेलकम", "latitude": 28.6720, "longitude": 77.2779, "sequence": 6, "interchange": true, "interchangeLines": ["Red Line"]},
        {"id": "P7", "name": "Anand Vihar ISBT", "nameHindi": "आनंद विहार", "latitude": 28.6470, "longitude": 77.3162, "sequence": 7, "interchange": true, "interchangeLines": ["Blue Line"]},
        {"id": "P8", "name": "Mayur Vihar-I", "nameHindi": "मयूर विहार-I", "latitude": 28.6044, "longitude": 77.2894, "sequence": 8, "interchange": true, "interchangeLines": ["Blue Line"]},
        {"id": "P9", "name": "Lajpat Nagar", "nameHindi": "लाजपत नगर", "latitude": 28.5707, "longitude": 77.2331, "sequence": 9, "interchange": true, "interchangeLines": ["Violet Line"]},
        {"id": "P10", "name": "Dilli Haat - INA", "nameHindi": "दिल्ली हाट - आईएनए", "latitude": 28.5752, "longitude": 77.2095, "sequence": 10, "interchange": true, "interchangeLines": ["Yellow Line"]},
        {"id": "P11", "name": "Rajouri Garden", "nameHindi": "राजौरी गार्डन", "latitude": 28.6492, "longitude": 77.1227, "sequence": 11, "interchange": true, "interchangeLines": ["Blue Line"]},
        {"id": "P12", "name": "Punjabi Bagh West", "nameHindi": "पंजाबी बाग पश्चिम", "latitude": 28.6736, "longitude": 77.1292, "sequence": 12, "interchange": true, "interchangeLines": ["Green Line"]},
        {"id": "P13", "name": "Netaji Subhash Place", "nameHindi": "नेताजी सुभाष प्लेस", "latitude": 28.6956, "longitude": 77.1524, "sequence": 13, "interchange": true, "interchangeLines": ["Red Line"]},
        {"id": "P14", "name": "Azadpur", "nameHindi": "आज़ादपुर", "latitude": 28.7073, "longitude": 77.1799, "sequence": 14, "interchange": true, "interchangeLines": ["Yellow Line", "Magenta Line"]}
      ]
    },
    {
      "name": "Green Line",
      "code": "green",
      "color": "#4CAF50",
      "stations": [
        {"id": "G1", "name": "Inderlok", "nameHindi": "इन्द्रलोक", "latitude": 28.6735, "longitude": 77.1702, "sequence": 1, "interchange": true, "interchangeLines": ["Red Line"]},
        {"id": "G2", "name": "Ashok Park Main", "nameHindi": "अशोक पार्क मेन", "latitude": 28.6716, "longitude": 77.1552, "sequence": 2, "interchange": true, "interchangeLines": ["Green Line Branch"]},
        {"id": "G3", "name": "Punjabi Bagh West", "nameHindi": "पंजाबी बाग पश्चिम", "latitude": 28.6727, "longitude": 77.1392, "sequence": 3, "interchange": true, "interchangeLines": ["Pink Line"]},
        {"id": "G4", "name": "Peeragarhi", "nameHindi": "पीरागढ़ी", "latitude": 28.6797, "longitude": 77.0925, "sequence": 4, "interchange": true, "interchangeLines": ["Magenta Line"]},
        {"id": "G5", "name": "Mundka", "nameHindi": "मुंडका", "latitude": 28.6824, "longitude": 77.0283, "sequence": 5, "interchange": false},
        {"id": "G6", "name": "Brigadier Hoshiyar Singh", "nameHindi": "ब्रिगेडियर होशियार सिंह", "latitude": 28.6974, "longitude": 76.9191, "sequence": 6, "interchange": false}
      ]
    }
  ]
}